city,obl,lat_c,long_c
Барнаул,Алтайский край,53.3474020,83.7784496
Бийск,Алтайский край,52.5394905,85.2148673
Рубцовск,Алтайский край,51.5276264,81.2176174
Новоалтайск,Алтайский край,53.3933410,83.9394070
Заринск,Алтайский край,53.7036060,84.9267120
Славгород,Алтайский край,52.9892428,78.6462510
Алейск,Алтайский край,52.4970221,82.7730755
Южный,Алтайский край,52.1436155,84.7997973
Тальменка,Алтайский край,51.6338867,84.1177107
Белокуриха,Алтайский край,51.9994856,84.9860861
Кулунда,Алтайский край,52.5665590,78.9354479
Павловск,Алтайский край,53.3133356,82.9899119
Шипуново,Алтайский край,52.4527273,83.7142753
ЗАТО Сибирский,Алтайский край,53.5570680,83.8384250
Поспелиха,Алтайский край,51.9913520,81.8249820
Змеиногорск,Алтайский край,51.1544657,82.1979928
Троицкое,Алтайский край,52.9813880,84.6776280
Благовещенск,Амурская область,50.2905270,127.5271610
Белогорск,Амурская область,50.9213260,128.4728700
Свободный,Амурская область,51.3773539,128.1347500
Тында,Амурская область,55.1496940,124.7375884
Зея,Амурская область,53.7403584,127.2716246
Шимановск,Амурская область,51.9987021,127.6719156
Райчихинск,Амурская область,49.7968900,129.4033660
Завитинск,Амурская область,50.1111540,129.4402341
Магдагачи,Амурская область,53.4517890,125.8046814
Прогресс,Амурская область,49.7429063,129.6757417
Серышево,Амурская область,51.0912060,128.3809200
Екатеринославка,Амурская область,50.3712840,129.1071930
Сковородино,Амурская область,53.9862567,123.9373454
Архара,Амурская область,49.4224283,130.0858308
Новобурейский,Амурская область,49.7939604,129.8734105
Ивановка,Амурская область,50.3581430,128.0031280
Февральск,Амурская область,52.4570500,130.8528290
Ерофей Павлович,Амурская область,53.9592440,121.9524000
Новокиевский Увал,Амурская область,51.6624387,128.9205030
Соловьевск,Амурская область,54.2209210,124.4397960
Дипкун,Амурская область,55.1288913,126.7849656
Юктали,Амурская область,56.5939145,121.6480223
Архангельск,Архангельская область,64.5430219,40.5371210
Северодвинск,Архангельская область,64.5633850,39.8237690
Котлас,Архангельская область,61.2521510,46.6476290
Новодвинск,Архангельская область,64.4192120,40.7937930
Вельск,Архангельская область,61.0756446,42.0979582
Астрахань,Астраханская область,46.3498540,48.0315670
Икряное,Астраханская область,46.0979213,47.7362688
Нариманов,Астраханская область,46.6922610,47.8512380
Володарский,Астраханская область,46.3982430,48.5364379
Началово,Астраханская область,46.3387984,48.1945640
Белгород,Белгородская область,50.5952990,36.5869330
Старый Оскол,Белгородская область,51.2980380,37.8332020
Губкин,Белгородская область,51.2837140,37.5346600
Шебекино,Белгородская область,50.4091530,36.8940119
Валуйки,Белгородская область,50.2112960,38.1002269
Строитель,Белгородская область,50.7852360,36.4854280
Разумное,Белгородская область,50.5347140,36.6858710
Борисовка,Белгородская область,50.3010838,38.3737653
Красная Яруга,Белгородская область,50.8007009,35.6552280
Вейделевка,Белгородская область,50.1518962,38.4453089
Брянск,Брянская область,53.2423778,34.3668288
Клинцы,Брянская область,52.7585110,32.2400970
Новозыбков,Брянская область,52.5370860,31.9336700
Дятьково,Брянская область,53.6010020,34.3381000
Унеча,Брянская область,52.8451000,32.6867000
Карачев,Брянская область,53.1241910,34.9967580
Жуковка,Брянская область,53.5329608,33.7320863
Почеп,Брянская область,52.9287800,33.4545360
Навля,Брянская область,52.8275990,34.5064009
Трубчевск,Брянская область,52.5835000,33.7674670
Фокино,Брянская область,53.4526625,34.4154587
Погар,Брянская область,52.5542830,33.2637060
Дубровка,Брянская область,53.6897770,33.5049900
Глинищево,Брянская область,53.3032040,34.0800360
Владимир,Владимирская область,56.1288899,40.4075203
Ковров,Владимирская область,56.3746030,41.3116760
Муром,Владимирская область,55.5738000,42.0447000
Александров,Владимирская область,56.3935278,38.7211599
Кольчугино,Владимирская область,56.2939784,39.3759931
Вязники,Владимирская область,56.2451400,42.1375770
Киржач,Владимирская область,56.1592229,38.8721255
Радужный,Владимирская область,55.9939587,40.3294410
Лакинск,Владимирская область,56.0150930,39.9465580
Меленки,Владимирская область,55.3368374,41.6314063
Петушки,Владимирская область,55.9310313,39.4599489
Камешково,Владимирская область,56.3462575,40.9970980
Судогда,Владимирская область,55.9515703,40.8586886
Красная Горбатка,Владимирская область,55.8689216,41.7637512
Волгоград,Волгоградская область,48.7106780,44.5168040
Волжский,Волгоградская область,48.7821020,44.7779843
Калач-на-Дону,Волгоградская область,48.6926990,43.5240630
Городище,Волгоградская область,48.8101270,44.4760820
Суровикино,Волгоградская область,48.6051410,42.8441470
Средняя Ахтуба,Волгоградская область,48.7128680,44.8576970
Быково,Волгоградская область,49.7647110,45.3907020
Ольховка,Волгоградская область,49.8526880,44.5625570
Заплавное,Волгоградская область,48.7040520,45.0241130
Череповец,Вологодская область,59.1286960,37.9163890
Вологда,Вологодская область,59.2188760,39.8932760
Великий Устюг,Вологодская область,60.7612852,46.3014666
Кадуй,Вологодская область,59.2398720,37.2561340
Вологда-20,Вологодская область,59.2070350,38.5009609
Сазоново,Вологодская область,59.0981940,35.2240139
Воронеж,Воронежская область,51.6605982,39.2005858
Борисоглебск,Воронежская область,51.3680150,42.0751690
Лиски,Воронежская область,50.9820790,39.4969410
Острогожск,Воронежская область,50.8649020,39.0772440
Новая Усмань,Воронежская область,51.6439692,39.4107009
Семилуки,Воронежская область,51.6904030,39.0221860
Бутурлиновка,Воронежская область,50.8284910,40.5873220
Калач,Воронежская область,50.4259519,41.0161721
Таловая,Воронежская область,51.1154100,40.7281229
Богучар,Воронежская область,49.9324498,40.5544754
Заброды,Воронежская область,50.4137990,41.0315210
Верхний Мамон,Воронежская область,50.1677646,40.3966104
Каменка,Воронежская область,50.7130010,39.4325980
Терновка,Воронежская область,51.6832615,41.5882069
Новохопёрск,Воронежская область,51.0951460,41.6169550
Солнечный,Воронежская область,51.7964147,39.2167620
Биробиджан,Еврейская автономная область,48.7881668,132.9282082
Облучье,Еврейская автономная область,49.0145149,131.0538038
Бабстово,Еврейская автономная область,48.1227395,132.4353297
Теплоозёрск,Еврейская автономная область,49.0099037,131.8847850
Валдгейм,Еврейская автономная область,48.6960988,132.9695836
Бирофельд,Еврейская автономная область,48.4209489,132.7994792
Чита,Забайкальский край,52.0334090,113.5008930
Краснокаменск,Забайкальский край,50.0969920,118.0413440
Борзя,Забайкальский край,50.3851808,116.5330685
Агинское,Забайкальский край,51.1057609,114.5408006
Нерчинск,Забайкальский край,51.9769400,116.5883410
Могоча,Забайкальский край,53.7335417,119.7648554
Забайкальск,Забайкальский край,49.6446530,117.3290250
Карымское,Забайкальский край,51.6234020,114.3406300
Горный,Забайкальский край,51.5546800,113.0331650
Атамановка,Забайкальский край,51.9180830,113.6493840
Кокуй,Забайкальский край,52.2047620,117.5507050
Ясногорск,Забайкальский край,50.8766670,115.6990430
Дарасун,Забайкальский край,51.6636960,113.9842530
Домна,Забайкальский край,51.8961910,113.1575090
Сретенск,Забайкальский край,52.2431910,117.6955410
Дульдурга,Забайкальский край,50.6750070,113.5893480
Акша,Забайкальский край,50.2808149,113.2851490
Ксеньевка,Забайкальский край,53.5598070,118.7341230
Иваново,Ивановская область,56.9984452,40.9737394
Кинешма,Ивановская область,57.4431000,42.1400999
Шуя,Ивановская область,56.8441010,41.3796010
Вичуга,Ивановская область,57.2202220,41.9245606
Фурманов,Ивановская область,57.2487560,41.1092299
Тейково,Ивановская область,56.8554753,40.5405863
Приволжск,Ивановская область,57.3803330,41.2811780
Комсомольск,Ивановская область,57.0273210,40.3776020
Иркутск,Иркутская область,52.2895970,104.2805860
Братск,Иркутская область,56.1517085,101.6334907
Ангарск,Иркутская область,52.5311116,103.8826109
Усть-Илимск,Иркутская область,57.9594730,102.7341919
Усолье-Сибирское,Иркутская область,52.7512013,103.6621624
Черемхово,Иркутская область,53.1484340,103.0701450
Шелехов,Иркутская область,52.2097478,104.0976830
Усть-Кут,Иркутская область,56.7803671,105.7464937
Саянск,Иркутская область,54.1123301,102.1785158
Зима,Иркутская область,53.9284020,102.0527270
Вихоревка,Иркутская область,56.1247220,101.1719510
Слюдянка,Иркутская область,51.6567690,103.7192920
Залари,Иркутская область,53.5662380,102.5159910
Мегет,Иркутская область,52.4201770,104.0579070
Хомутово,Иркутская область,52.4672050,104.3688510
Молодежный,Иркутская область,52.2345540,104.4210811
Средний,Иркутская область,52.8820760,103.4886400
Кутулик,Иркутская область,53.3494146,102.7949052
Иркутск-45,Иркутская область,52.2895970,104.2805860
Прохладный,Кабардино-Балкарская Республика,43.7587545,44.0149008
Калининград,Калининградская область,54.6498486,20.3344662
Гусев,Калининградская область,54.5921440,22.2015208
Гурьевск,Калининградская область,54.7738796,20.6070990
Зеленоградск,Калининградская область,54.9600365,20.4750188
Светлогорск,Калининградская область,54.9417552,20.1550863
Пионерский,Калининградская область,54.9482270,20.2259100
Мамоново,Калининградская область,54.4636264,19.9414303
Полесск,Калининградская область,54.8602520,21.1070270
Ладушкин,Калининградская область,54.5712666,20.1734409
Храброво,Калининградская область,54.8975847,20.5734834
Калуга,Калужская область,54.5101087,36.2598115
Обнинск,Калужская область,55.0951738,36.6119130
Людиново,Калужская область,53.8647156,34.4478141
Киров,Калужская область,54.0743220,34.3026080
Малоярославец,Калужская область,55.0121810,36.4590246
Балабаново,Калужская область,55.1783579,36.6575564
Козельск,Калужская область,54.0371020,35.7801020
Сухиничи,Калужская область,54.0996590,35.3458210
Товарково,Калужская область,54.6774326,35.9381405
Жуков,Калужская область,55.0338000,36.7489000
Кремёнки,Калужская область,54.8865166,37.1171605
Таруса,Калужская область,54.7293536,37.1815538
Юхнов,Калужская область,54.7415766,35.2264393
Мосальск,Калужская область,54.4872930,34.9789540
Мещовск,Калужская область,54.3175543,35.2851588
Ворсино,Калужская область,55.2247245,36.6475430
Петропавловск-Камчатский,Камчатский край,53.0199693,158.6472187
Елизово,Камчатский край,53.1864972,158.3836712
Вилючинск,Камчатский край,52.9318340,158.4053830
Ключи,Камчатский край,56.3182180,160.8421780
Раздольный,Камчатский край,53.2713430,158.2909699
Паратунка,Камчатский край,52.9622540,158.2544100
Кемерово,Кемеровская область,55.3551250,86.0872340
Новокузнецк,Кемеровская область,53.7576070,87.1361010
Прокопьевск,Кемеровская область,53.8909720,86.7376630
Междуреченск,Кемеровская область,53.6863763,88.0703443
Ленинск-Кузнецкий,Кемеровская область,54.6654430,86.1661150
Киселёвск,Кемеровская область,54.0049872,86.6354771
Юрга,Кемеровская область,55.7136000,84.9347990
Белово,Кемеровская область,54.4193230,86.3034290
Анжеро-Судженск,Кемеровская область,56.0778080,86.0193560
Берёзовский,Кемеровская область,55.6699260,86.2745290
Осинники,Кемеровская область,53.6069950,87.3328930
Топки,Кемеровская область,55.2751962,85.6228741
Полысаево,Кемеровская область,54.6031420,86.2760240
Тайга,Кемеровская область,56.0650710,85.6313250
Калтан,Кемеровская область,53.5194590,87.2861790
Промышленная,Кемеровская область,54.9186550,85.6380293
Бачатский,Кемеровская область,54.2831380,86.1047590
Грамотеино,Кемеровская область,54.5348700,86.3807370
Инской,Кемеровская область,54.4326440,86.4416810
Тяжинский,Кемеровская область,56.1139351,88.5171814
Киров,Кировская область,58.6035257,49.6639028
Кирово-Чепецк,Кировская область,58.5421963,50.0340889
Слободской,Кировская область,58.7277816,50.1771234
Яранск,Кировская область,57.3012512,47.8773055
Кильмезь,Кировская область,56.9449015,51.0613993
Тужа,Кировская область,57.6053835,47.9373723
Кострома,Костромская область,57.7679158,40.9269141
Шарья,Костромская область,58.3725700,45.5193060
Ветлужский,Костромская область,58.3944470,45.4713820
Красное-на-Волге,Костромская область,57.5093190,41.2376210
Краснодар,Краснодарский край,45.0352565,38.9764814
Сочи,Краснодарский край,45.0870074,39.0429091
Новороссийск,Краснодарский край,44.7239578,37.7690711
Армавир,Краснодарский край,44.9986975,41.1252240
Ейск,Краснодарский край,46.7110877,38.2747683
Кропоткин,Краснодарский край,45.4344413,40.5750274
Геленджик,Краснодарский край,44.5609447,38.0766832
Анапа,Краснодарский край,44.8942720,37.3168870
Славянск-на-Кубани,Краснодарский край,45.2590875,38.1244609
Туапсе,Краснодарский край,44.0984747,39.0718875
Лабинск,Краснодарский край,44.6347953,40.7242185
Тихорецк,Краснодарский край,45.8546790,40.1281240
Крымск,Краснодарский край,44.9295889,37.9880177
Белореченск,Краснодарский край,44.7658115,39.8679923
Тимашевск,Краснодарский край,45.6123531,38.9504299
Курганинск,Краснодарский край,44.8890102,40.5895395
Кореновск,Краснодарский край,45.4602681,39.4376878
Темрюк,Краснодарский край,45.2751663,37.3905480
Усть-Лабинск,Краснодарский край,45.2178027,39.6896725
Горячий Ключ,Краснодарский край,44.6342653,39.1363613
Ленинградская,Краснодарский край,46.3212449,39.3895539
Павловская,Краснодарский край,46.1350081,39.7832075
Ильский,Краснодарский край,44.8545749,38.5702615
Тбилисская,Краснодарский край,45.3635681,40.1898342
Хадыженск,Краснодарский край,44.4231032,39.5369484
Брюховецкая,Краснодарский край,45.8005680,39.0046540
Афипский,Краснодарский край,44.9040435,38.8426821
Калининская,Краснодарский край,45.4856626,38.6598137
Старонижестеблиевская,Краснодарский край,45.3752530,38.4448335
Новомышастовская,Краснодарский край,45.1987319,38.5795212
Тамань,Краснодарский край,45.2158646,36.7191326
Трудобеликовский,Краснодарский край,45.2670590,38.1599920
Нововеличковская,Краснодарский край,45.2787805,38.8377083
Советская,Краснодарский край,44.7820162,41.1708729
Новокорсунская,Краснодарский край,45.6373180,39.1435360
Фёдоровская,Краснодарский край,45.0796005,38.4676434
Уташ,Краснодарский край,45.0974037,37.3369765
Эстосадок,Краснодарский край,43.6849982,40.2563531
Красноярск,Красноярский край,56.0090968,92.8725147
Норильск,Красноярский край,69.3498393,88.2005170
Ачинск,Красноярский край,56.2694846,90.4953964
Канск,Красноярский край,56.2059970,95.7067870
Железногорск,Красноярский край,56.2509380,93.5328600
Минусинск,Красноярский край,53.7003250,91.6972350
Зеленогорск,Красноярский край,56.1135600,94.5892790
Лесосибирск,Красноярский край,58.2235110,92.4859700
Назарово,Красноярский край,56.0115930,90.4185030
Сосновоборск,Красноярский край,56.1214940,93.3387300
Шарыпово,Красноярский край,55.5355030,89.1864320
Дивногорск,Красноярский край,55.9596440,92.3754200
Дудинка,Красноярский край,69.4060669,86.1750720
Березовка,Красноярский край,56.0384220,93.1331940
Енисейск,Красноярский край,58.4532212,92.1748169
Шушенское,Красноярский край,53.3278200,91.9453740
Бородино,Красноярский край,55.8997187,94.8930452
Ужур,Красноярский край,55.3216359,89.8486585
Иланский,Красноярский край,56.2380600,96.0669400
Курагино,Красноярский край,53.8880920,92.6802220
Уяр,Красноярский край,55.8099860,94.3277740
Емельяново,Красноярский край,56.1672550,92.6884539
Богучаны,Красноярский край,58.3828160,97.4615780
Заозёрный,Красноярский край,55.9654010,94.7081070
Ермаковское,Красноярский край,53.2780460,92.3960880
Нижняя Пойма,Красноярский край,56.1630590,97.2019200
Каратузское,Красноярский край,53.6006659,92.8689960
Нижний Ингаш,Красноярский край,56.2036020,96.5445180
Балахта,Красноярский край,55.3832210,91.6152730
Новосёлово,Красноярский край,55.0051770,90.9672010
Сухобузимское,Красноярский край,56.4998750,93.2785676
Шалинское,Красноярский край,55.7197150,93.7648160
Подтесово,Красноярский край,58.6042520,92.0909350
Солонцы,Красноярский край,56.0675351,92.8492582
Кошурниково,Красноярский край,54.3005560,93.3947830
Камарчага,Красноярский край,55.8083208,93.6839028
Элита,Красноярский край,56.0896885,92.5720812
Светлолобово,Красноярский край,55.0911370,90.8499150
Курган,Курганская область,55.4543500,65.3218770
Шадринск,Курганская область,56.0873640,63.6294820
Шумиха,Курганская область,55.2282070,63.2825010
Далматово,Курганская область,56.2586560,62.9391630
Петухово,Курганская область,55.0646630,67.8871540
Шатрово,Курганская область,56.5195690,64.6342090
Курск,Курская область,51.7394330,36.1796040
Железногорск,Курская область,52.3306193,35.3515011
Курчатов,Курская область,51.6594660,35.6588629
Льгов,Курская область,51.6906587,35.2839999
Рыльск,Курская область,51.5705380,34.6835060
Щигры,Курская область,51.8708210,36.9131896
Обоянь,Курская область,51.2110790,36.2762450
Карла Либкнехта,Курская область,51.6231960,35.4774930
Суджа,Курская область,51.1907080,35.2708550
Кшенский,Курская область,51.8489800,37.7242200
Прямицыно,Курская область,51.6538700,35.9371950
Пристень,Курская область,51.7181633,35.0360524
Медвенка,Курская область,51.4177060,36.1180460
Колпино,Ленинградская область,59.7484440,30.6044790
Пушкин,Ленинградская область,59.7222560,30.4157310
Гатчина,Ленинградская область,59.5706273,30.1305083
Петергоф,Ленинградская область,59.8818470,29.9120410
Выборг,Ленинградская область,60.7092170,28.7440510
Всеволожск,Ленинградская область,60.0240060,30.6460420
Тихвин,Ленинградская область,59.6443230,33.5418624
Красное Село,Ленинградская область,60.8168212,30.0237156
Кингисепп,Ленинградская область,59.3764950,28.6112980
Волхов,Ленинградская область,59.9275868,32.3276803
Кронштадт,Ленинградская область,59.9972933,29.7724837
Ломоносов,Ленинградская область,59.9103200,29.7761940
Сестрорецк,Ленинградская область,60.0981084,29.9597606
Тосно,Ленинградская область,59.5412777,30.8773645
Луга,Ленинградская область,58.7356990,29.8475013
Зеленогорск,Ленинградская область,60.1970751,29.7071585
Сланцы,Ленинградская область,59.1172600,28.0869790
Кировск,Ленинградская область,59.8813954,30.9855331
Мурино,Ленинградская область,60.0460671,30.4458472
Лодейное Поле,Ленинградская область,60.7339323,33.5457731
Новое Девяткино,Ленинградская область,60.0580250,30.4754350
Павловск,Ленинградская область,59.8540380,31.6138110
Светогорск,Ленинградская область,61.1112542,28.8701036
Кудрово,Ленинградская область,59.9070930,30.5082950
Мга,Ленинградская область,59.7569359,31.0609544
Бугры,Ленинградская область,60.0685580,30.3948140
Липецк,Липецкая область,52.6041877,39.5936899
Елец,Липецкая область,52.6219865,38.5003298
Грязи,Липецкая область,52.4961200,39.9551620
Усмань,Липецкая область,52.0506929,39.7399996
Лебедянь,Липецкая область,53.0126146,39.1275930
Тербуны,Липецкая область,52.1468280,38.2783890
Казинка,Липецкая область,52.6019970,39.0893970
Магадан,Магаданская область,59.5604768,150.7988617
Москва,Москва,55.7019479,37.9221191
Балашиха,Московская область,55.8036225,37.9646488
Подольск,Московская область,55.4308841,37.5453056
Химки,Московская область,55.8892847,37.4449896
Королёв,Московская область,55.9204898,37.8326289
Мытищи,Московская область,55.9094928,37.7339358
Люберцы,Московская область,55.6783142,37.8937700
Красногорск,Московская область,55.8217440,37.3404142
Электросталь,Московская область,55.7903785,38.4405711
Коломна,Московская область,55.0938743,38.7670121
Одинцово,Московская область,55.6711507,37.2727963
Домодедово,Московская область,55.4447940,37.7542720
Серпухов,Московская область,54.9155247,37.4195532
Щёлково,Московская область,55.9206499,37.9915576
Орехово-Зуево,Московская область,55.8083278,38.9790038
Раменское,Московская область,55.5709361,38.2282099
Долгопрудный,Московская область,55.9341491,37.5142417
Жуковский,Московская область,55.5972801,38.1199863
Пушкино,Московская область,56.0104274,37.8461892
Реутов,Московская область,55.7622613,37.8565794
Сергиев Посад,Московская область,56.3089497,38.1360855
Ногинск,Московская область,55.8553511,38.4411897
Воскресенск,Московская область,55.3225180,38.6816824
Лобня,Московская область,56.0104473,37.4670831
Клин,Московская область,56.3355543,36.7352147
Ивантеевка,Московская область,55.9714098,37.9200739
Дубна,Московская область,56.7449788,37.1737422
Егорьевск,Московская область,55.3829765,39.0356223
Чехов,Московская область,55.1426603,37.4545328
Дмитров,Московская область,56.3450695,37.5200723
Ступино,Московская область,54.8865980,38.0772588
Павловский Посад,Московская область,55.7813357,38.6507838
Наро-Фоминск,Московская область,55.3879906,36.7399678
Троицк,Московская область,55.4728168,37.3017465
Фрязино,Московская область,55.9546180,38.0567690
Лыткарино,Московская область,55.5825823,37.9084815
Московский,Московская область,55.6025502,37.3480870
Солнечногорск,Московская область,56.1854031,36.9781174
Котельники,Московская область,55.6616680,37.8673073
Нахабино,Московская область,55.8394977,37.1771859
Краснознаменск,Московская область,55.5971787,37.0395057
Протвино,Московская область,54.8707703,37.2188629
Истра,Московская область,55.9145993,36.8595482
Шатура,Московская область,55.5784030,39.5437584
Томилино,Московская область,55.6533898,37.9464009
Луховицы,Московская область,54.9655573,39.0277188
Малино,Московская область,55.1128866,38.1787627
Можайск,Московская область,55.5016383,36.0334703
Дедовск,Московская область,55.8597808,37.1206449
Ликино-Дулёво,Московская область,55.7043101,38.9569091
Апрелевка,Московская область,55.7043101,38.9569091
Красноармейск,Московская область,56.1210895,38.1457655
Электрогорск,Московская область,55.8792983,38.7858721
Бронницы,Московская область,55.4219938,38.2590612
Звенигород,Московская область,55.7293613,36.8585382
Старая Купавна,Московская область,55.8070323,38.1774172
Хотьково,Московская область,56.2541234,37.9908107
Черноголовка,Московская область,56.0061165,38.3835223
Пущино,Московская область,54.8347213,37.6139685
Монино,Московская область,55.8413710,38.1967476
Куровское,Московская область,55.5771391,38.9225824
Электроугли,Московская область,55.7184467,38.2228192
Кубинка,Московская область,55.5755486,36.6952802
Волоколамск,Московская область,56.0360129,35.9583358
Тучково,Московская область,55.6014428,36.4662973
Белоозёрский,Московская область,55.4595029,38.4389885
Голицыно,Московская область,55.6149602,36.9887625
Селятино,Московская область,55.3879906,36.7399678
Талдом,Московская область,56.7309410,37.5280160
Запрудня,Московская область,56.5626500,37.4255388
Дрезна,Московская область,55.7448093,38.8491341
Ильинский,Московская область,55.6180826,38.1002947
Давыдово,Московская область,55.3445540,38.4496710
Быково,Московская область,55.6311596,38.0761816
Лесной Городок,Московская область,55.6402275,37.2068966
Бритово,Московская область,55.4781230,38.1494884
Загорянский,Московская область,55.9204584,37.9279193
Горки-10,Московская область,55.7044950,37.0239744
имени Воровского,Московская область,55.7256479,38.3413810
Барвиха,Московская область,55.7245031,37.2741840
Северный,Московская область,55.9439030,36.8384636
Ильинское-Усово,Московская область,55.7672281,37.2202091
Шарапово,Московская область,55.6563338,36.7412347
Марфино,Московская область,55.7033404,37.3831002
Лапино,Московская область,55.6782543,37.1535926
Веледниково,Московская область,55.7985637,37.1168000
Мурманск,Мурманская область,68.9706650,33.0749700
Мончегорск,Мурманская область,67.9399030,32.9316790
Кандалакша,Мурманская область,67.1514420,32.4130551
Оленегорск,Мурманская область,68.1407320,33.2825970
Заполярный,Мурманская область,69.4262390,30.8199390
Мурмаши,Мурманская область,68.8169560,32.8165050
Никель,Мурманская область,69.4062217,30.2114216
Умба,Мурманская область,66.6780339,34.3376019
Тулома,Мурманская область,68.8192670,32.6906010
Нижний Новгород,Нижегородская область,56.3008458,44.0274564
Дзержинск,Нижегородская область,56.2149917,43.5400855
Арзамас,Нижегородская область,55.3783165,43.8990700
Бор,Нижегородская область,56.3598289,44.0542641
Кстово,Нижегородская область,56.1442013,44.1777673
Балахна,Нижегородская область,56.4870505,43.6039553
Богородск,Нижегородская область,56.1032140,43.5260823
Кулебаки,Нижегородская область,55.4187017,42.5227406
Семёнов,Нижегородская область,56.7883420,44.4915499
Первомайск,Нижегородская область,54.8719966,43.7899226
Ардатов,Нижегородская область,55.2410408,43.0968037
Вад,Нижегородская область,55.5344453,44.1928121
Берёзовка,Нижегородская область,55.3555820,43.8561043
Федяково,Нижегородская область,56.2295460,44.0550420
Великий Новгород,Новгородская область,58.5209862,31.2757862
Боровичи,Новгородская область,58.3890090,33.9068275
Старая Русса,Новгородская область,57.9898923,31.3634905
Валдай,Новгородская область,57.9791414,33.2537994
Новосибирск,Новосибирская область,55.0282171,82.9234509
Бердск,Новосибирская область,54.7579500,83.1068095
Искитим,Новосибирская область,54.6426269,83.3035675
Куйбышев,Новосибирская область,55.4454258,78.3222294
Обь,Новосибирская область,54.9951335,82.6933946
Барабинск,Новосибирская область,55.3517840,78.3478160
Черепаново,Новосибирская область,54.2261010,83.3704680
Линёво,Новосибирская область,54.4564590,83.3790740
Коченёво,Новосибирская область,55.0214420,82.2077180
Кольцово,Новосибирская область,54.9367736,83.1871390
Болотное,Новосибирская область,55.6715660,84.3885500
Колывань,Новосибирская область,55.3068791,82.7433463
Криводановка,Новосибирская область,55.0859006,82.6440062
Ордынское,Новосибирская область,54.3666760,81.9040220
Мошково,Новосибирская область,55.3048060,83.6118550
Краснозерское,Новосибирская область,53.9847680,79.2285770
Барышево,Новосибирская область,54.9622004,83.1882987
Чик,Новосибирская область,54.9944056,82.4427018
Садовый,Новосибирская область,55.1372818,82.9661333
Омск,Омская область,54.9913750,73.3715290
Тара,Омская область,56.9025870,74.3698652
Исилькуль,Омская область,54.9048920,71.2599870
Калачинск,Омская область,55.0490910,74.5824279
Таврическое,Омская область,54.5866740,73.6374359
Называевск,Омская область,55.5648960,71.3493650
Черлак,Омская область,54.1540670,74.7974987
Большеречье,Омская область,56.0945850,74.6395190
Кормиловка,Омская область,55.0026130,74.0922240
Москаленки,Омская область,54.9394680,71.9258800
Лузино,Омская область,54.9539070,73.0413740
Марьяновка,Омская область,54.9606590,72.6379470
Павлоградка,Омская область,54.2050060,73.5564880
Крутинка,Омская область,56.0063510,71.5113070
Полтавка,Омская область,54.3638950,71.7601390
Шербакуль,Омская область,54.6310460,72.3928220
Одесское,Омская область,54.2096900,72.9655380
Нововаршавка,Омская область,54.1706160,74.6960370
Оренбург,Оренбургская область,51.7674520,55.0971180
Орск,Оренбургская область,51.2305015,58.4738015
Новотроицк,Оренбургская область,51.1963690,58.2985270
Бузулук,Оренбургская область,52.7885020,52.2538989
Кувандык,Оренбургская область,51.4787560,57.3507960
Переволоцкий,Оренбургская область,51.8749502,54.2080495
Сакмара,Оренбургская область,51.9846000,55.3334010
Орёл,Орловская область,52.9685433,36.0692477
Ливны,Орловская область,52.4253859,37.6089000
Мценск,Орловская область,53.2789840,36.5760770
Болхов,Орловская область,53.4489940,36.0022320
Пенза,Пензенская область,53.2000010,45.0000000
Кузнецк,Пензенская область,53.1125140,46.6007270
Заречный,Пензенская область,53.1960140,45.1692729
Каменка,Пензенская область,53.1849530,44.0528959
Сердобск,Пензенская область,52.4615060,44.2139240
Нижний Ломов,Пензенская область,53.5299910,43.6736260
Никольск,Пензенская область,53.7145960,46.0851750
Мокшан,Пензенская область,53.4392170,44.6053430
Засечное,Пензенская область,53.1049768,45.0761511
Башмаково,Пензенская область,53.2122204,43.0360244
Пачелма,Пензенская область,53.3266260,43.3196720
Белинский,Пензенская область,52.9669338,43.4130625
Лунино,Пензенская область,53.5882950,45.2228810
Спасск,Пензенская область,53.9313130,43.1886439
Исса,Пензенская область,53.8655890,44.8396450
Вадинск,Пензенская область,53.6892470,43.0443080
Пермь,Пермский край,58.0149650,56.2467230
Березники,Пермский край,59.4084171,56.8036958
Соликамск,Пермский край,59.6494370,56.7795940
Чайковский,Пермский край,56.7787468,54.1500704
Кунгур,Пермский край,57.4288440,56.9443280
Краснокамск,Пермский край,58.0812613,55.7586943
Петропавловск,Пермский край,57.6522980,54.2922290
Владивосток,Приморский край,43.1150678,131.8855768
Уссурийск,Приморский край,43.7972447,131.9520752
Находка,Приморский край,42.8246489,132.8925999
Артём,Приморский край,43.3570377,132.1853629
Арсеньев,Приморский край,44.1608007,133.2889113
Спасск-Дальний,Приморский край,44.5980135,132.8157010
Большой Камень,Приморский край,43.1121194,132.3509104
Партизанск,Приморский край,43.1413275,133.1436967
Лесозаводск,Приморский край,45.4747744,133.4182158
Дальнереченск,Приморский край,45.9337195,133.7349056
Фокино,Приморский край,42.9772084,132.4049050
Лучегорск,Приморский край,46.4443195,134.3006729
Кавалерово,Приморский край,44.2673637,135.0554977
Черниговка,Приморский край,44.3400202,132.5695074
Славянка,Приморский край,42.8606833,131.3924115
Камень-Рыболов,Приморский край,44.7421984,132.0467903
Пограничный,Приморский край,44.4031151,131.3825060
Михайловка,Приморский край,44.2861366,133.8609993
Сибирцево,Приморский край,44.2030676,132.4430113
Смоляниново,Приморский край,43.2874945,132.4563758
Вольно-Надеждинское,Приморский край,43.3695350,131.9986314
Липовцы,Приморский край,44.1987395,131.7013330
Барабаш,Приморский край,43.1901226,131.4959610
Зарубино,Приморский край,42.6510985,131.0620142
Краскино,Приморский край,42.7126746,130.7814911
Посьет,Приморский край,42.6508123,130.8045834
Псков,Псковская область,57.8173980,28.3343680
Великие Луки,Псковская область,56.3423610,30.5279220
Майкоп,Республика Адыгея,44.6062079,40.1040530
Новая Адыгея,Республика Адыгея,45.0251733,38.9199391
Чемал,Республика Алтай,51.4069060,86.0035709
Уфа,Республика Башкортостан,54.7262880,55.9477270
Стерлитамак,Республика Башкортостан,53.6323740,55.9522590
Салават,Республика Башкортостан,53.3616870,55.9246410
Нефтекамск,Республика Башкортостан,56.0992300,54.2615113
Октябрьский,Республика Башкортостан,53.5987280,55.6205940
Туймазы,Республика Башкортостан,54.6065370,53.6974004
Ишимбай,Республика Башкортостан,53.4546550,56.0439950
Кумертау,Республика Башкортостан,52.7609750,55.7964820
Белебей,Республика Башкортостан,54.1019364,54.1090531
Бирск,Республика Башкортостан,55.4206774,55.5407179
Благовещенск,Республика Башкортостан,55.0311430,55.9818760
Дюртюли,Республика Башкортостан,55.4906160,54.8638950
Раевский,Республика Башкортостан,54.0686950,54.9416280
Иглино,Республика Башкортостан,54.8237500,56.4099810
Красноусольский,Республика Башкортостан,53.8961616,56.4705604
Чекмагуш,Республика Башкортостан,55.1384761,54.6536582
Бакалы,Республика Башкортостан,55.1811919,53.7990407
Бижбуляк,Республика Башкортостан,53.6934430,54.2686160
Железнодорожный,Республика Башкортостан,53.9281690,58.3220940
Кармаскалы,Республика Башкортостан,54.3674510,56.1688190
Улан-Удэ,Республика Бурятия,51.8357841,107.5839105
Северобайкальск,Республика Бурятия,55.6359670,109.3356480
Гусиноозёрск,Республика Бурятия,51.2895160,106.5270080
Кяхта,Республика Бурятия,50.3531760,106.4491500
Селенгинск,Республика Бурятия,52.0073780,106.8675990
Закаменск,Республика Бурятия,50.3778040,103.2915270
Онохой,Республика Бурятия,51.9231220,108.0513990
Бичура,Республика Бурятия,50.5886270,107.5992740
Хоринск,Республика Бурятия,52.1612510,109.7796400
Таксимо,Республика Бурятия,56.3555150,114.8379820
Петропавловка,Республика Бурятия,52.0414050,108.4855040
Каменск,Республика Бурятия,51.9835130,106.5839690
Кижинга,Республика Бурятия,51.8495599,109.9131470
Кабанск,Республика Бурятия,52.0554080,106.6543200
Турунтаево,Республика Бурятия,52.2012560,107.6356890
Курумкан,Республика Бурятия,54.3263360,110.3232570
Заиграево,Республика Бурятия,51.8342930,108.2706150
Кырен,Республика Бурятия,51.6824040,102.1329120
Мухоршибирь,Республика Бурятия,51.0469970,107.8285370
Новоильинск,Республика Бурятия,51.6860810,51.6860810
Тарбагатай,Республика Бурятия,52.1131056,109.2002131
Горхон,Республика Бурятия,51.5604994,108.7878395
Махачкала,Республика Дагестан,42.9755400,47.4961200
Хасавюрт,Республика Дагестан,43.2427440,46.5808490
Дербент,Республика Дагестан,42.0576987,48.2938068
Каспийск,Республика Дагестан,42.8881414,47.6424676
Элиста,Республика Калмыкия,46.3069990,44.2701870
Лагань,Республика Калмыкия,45.3920590,47.3612820
Троицкое,Республика Калмыкия,46.4110680,44.2607039
Городовиковск,Республика Калмыкия,46.0828510,41.9342690
Яшкуль,Республика Калмыкия,46.1741680,45.3434640
Малые Дербеты,Республика Калмыкия,47.9478031,44.6674977
Ики-Бурул,Республика Калмыкия,45.8229980,44.6470030
Комсомольский,Республика Калмыкия,45.3296700,46.0429800
Петрозаводск,Республика Карелия,61.7900390,34.3900070
Сыктывкар,Республика Коми,61.6689734,50.8349580
Солнечное,Республика Крым,45.0481399,34.0840993
Йошкар-Ола,Республика Марий Эл,56.6327144,47.8953961
Волжск,Республика Марий Эл,55.8636579,48.3618598
Медведево,Республика Марий Эл,56.6332869,47.8033563
Саранск,Республика Мордовия,54.1867100,45.1838300
Рузаевка,Республика Мордовия,54.0587350,44.9543910
Ковылкино,Республика Мордовия,54.0378990,43.9149550
Марьяновка,Республика Мордовия,54.1328470,45.9237670
Якутск,Республика Саха (Якутия),62.0272870,129.7320860
Нерюнгри,Республика Саха (Якутия),56.6579641,124.7123605
Мирный,Республика Саха (Якутия),62.5410770,113.9785840
Ленск,Республика Саха (Якутия),60.7145488,114.9172123
Алдан,Республика Саха (Якутия),58.6084140,125.3882220
Намцы,Республика Саха (Якутия),62.7182270,129.6642460
Покровск,Республика Саха (Якутия),61.4840280,129.1356510
Майя,Республика Саха (Якутия),61.7422140,130.2811890
Хандыга,Республика Саха (Якутия),62.6477939,135.5750942
Нижний Куранах,Республика Саха (Якутия),58.8191150,125.5293270
Маган,Республика Саха (Якутия),62.1024670,129.5325930
Владикавказ,Республика Северная Осетия-Алания,43.0245930,44.6821100
Казань,Республика Татарстан,55.7823547,49.1242266
Набережные Челны,Республика Татарстан,55.7420117,52.3992172
Нижнекамск,Республика Татарстан,55.6412879,51.8160376
Альметьевск,Республика Татарстан,54.8996495,52.3014846
Зеленодольск,Республика Татарстан,55.8477605,48.5097031
Бугульма,Республика Татарстан,54.5384152,52.7955953
Елабуга,Республика Татарстан,55.7577131,52.0539938
Лениногорск,Республика Татарстан,54.5994324,52.4469099
Чистополь,Республика Татарстан,55.3714831,50.6367311
Менделеевск,Республика Татарстан,55.8878706,52.3084429
Бавлы,Республика Татарстан,54.4030866,53.2357016
Кукмор,Республика Татарстан,56.1865318,50.8972087
Мамадыш,Республика Татарстан,55.7090757,51.4089032
Камские Поляны,Республика Татарстан,55.4255025,51.4101584
Алексеевское,Республика Татарстан,55.3049649,50.1128918
Высокая Гора,Республика Татарстан,55.9101814,49.3072048
Лаишево,Республика Татарстан,55.4043358,49.5468376
Пестрецы,Республика Татарстан,55.7502111,49.6570913
Рыбная Слобода,Республика Татарстан,55.4644212,50.1406205
Муслюмово,Республика Татарстан,55.3059255,53.1941482
Базарные Матаки,Республика Татарстан,54.9034845,49.9275487
Старое Дрожжаное,Республика Татарстан,54.7249827,47.5645397
Новое Шигалеево,Республика Татарстан,55.8131566,49.4572087
Кызыл,Республика Тыва,51.7190995,94.4300626
Каа-Хем,Республика Тыва,51.6965410,94.5637210
Ак-Довурак,Республика Тыва,51.1740810,90.5999913
Шагонар,Республика Тыва,51.5387210,92.9194074
Чадан,Республика Тыва,51.2860180,91.5828170
Туран,Республика Тыва,52.1458093,93.9186433
Сукпак,Республика Тыва,51.6473874,94.2671278
Сарыг-Сеп,Республика Тыва,51.4926260,95.5546810
Мугур-Аксы,Республика Тыва,50.3800035,90.4417210
Хову-Аксы,Республика Тыва,51.1319430,93.7157440
Самагалтай,Республика Тыва,50.5999980,95.0018460
Тээли,Республика Тыва,51.0110954,90.2043058
Суг-Аксы,Республика Тыва,51.4022480,91.2787860
Эрзин,Республика Тыва,50.2599782,95.1582961
Абакан,Республика Хакасия,53.7152900,91.4388730
Черногорск,Республика Хакасия,53.8282360,91.3132100
Саяногорск,Республика Хакасия,53.0899015,91.4128377
Усть-Абакан,Республика Хакасия,53.8446010,91.3812940
Сорск,Республика Хакасия,54.0016092,90.2525861
Таштып,Республика Хакасия,52.7958600,89.8917240
Аскиз,Республика Хакасия,53.1326520,90.5300220
Ростов-на-Дону,Ростовская область,47.2246949,39.7164860
Таганрог,Ростовская область,47.2136896,38.9033650
Шахты,Ростовская область,47.7119167,40.2115699
Волгодонск,Ростовская область,47.5128177,42.1717606
Новочеркасск,Ростовская область,47.4106600,40.1019859
Батайск,Ростовская область,47.1385270,39.7423480
Новошахтинск,Ростовская область,47.7558886,39.9359870
Каменск-Шахтинский,Ростовская область,48.3210807,40.2650679
Азов,Ростовская область,47.1065585,39.4176939
Гуково,Ростовская область,48.0530303,39.9441925
Аксай,Ростовская область,47.2686960,39.8613620
Белая Калитва,Ростовская область,48.1751778,40.7902124
Красный Сулин,Ростовская область,47.8915520,40.0718990
Миллерово,Ростовская область,48.9196264,40.3918540
Морозовск,Ростовская область,48.3523790,41.8287620
Зерноград,Ростовская область,46.8448450,40.3048130
Зверево,Ростовская область,48.0206450,40.1185610
Багаевская,Ростовская область,47.3214340,40.3829040
Чалтырь,Ростовская область,47.2834549,39.5015180
Усть-Донецкий,Ростовская область,47.6402240,40.8687479
Советская,Ростовская область,49.0092050,42.1202470
Суходольск,Ростовская область,47.0032420,39.7014349
Рязань,Рязанская область,54.6295687,39.7425039
Скопин,Рязанская область,53.8235240,39.5492739
Ряжск,Рязанская область,53.7088780,40.0629840
Рыбное,Рязанская область,54.7268415,39.5088612
Новомичуринск,Рязанская область,54.0430110,39.7440110
Сараи,Рязанская область,53.7214301,40.9969576
Ухолово,Рязанская область,53.7911380,40.4882739
Александро-Невский,Рязанская область,53.4754054,40.2099834
Дядьково,Рязанская область,54.6124251,39.8462778
Самара,Самарская область,53.1986270,50.1139870
Тольятти,Самарская область,53.5149500,49.4075739
Сызрань,Самарская область,53.1553800,48.4741209
Новокуйбышевск,Самарская область,53.0992430,49.9483640
Чапаевск,Самарская область,52.9812850,49.7111930
Жигулёвск,Самарская область,53.4005122,49.4955657
Отрадный,Самарская область,53.3761750,51.3480530
Кинель,Самарская область,53.2197380,50.6332280
Похвистнево,Самарская область,53.6467970,52.1233440
Октябрьск,Самарская область,53.1641910,48.6712489
Безенчук,Самарская область,52.9853219,49.4322968
Нефтегорск,Самарская область,52.8038100,51.1638639
Кинель-Черкассы,Самарская область,53.4654467,51.4754654
Рощинский,Самарская область,53.0510440,50.4925230
Красный Яр,Самарская область,52.3483177,49.8699167
Петра Дубрава,Самарская область,53.2946090,50.3659440
Санкт-Петербург,Санкт-Петербург,59.7775936,30.3258447
Саратов,Саратовская область,51.5300180,46.0346830
Энгельс,Саратовская область,51.5013774,46.1233093
Балаково,Саратовская область,52.0181200,47.8191410
Балашов,Саратовская область,51.5370840,43.1717621
Вольск,Саратовская область,52.0427550,47.3860320
Пугачёв,Саратовская область,52.0141410,48.8039280
Ртищево,Саратовская область,52.2598840,43.7878530
Маркс,Саратовская область,51.7069911,46.7483653
Аткарск,Саратовская область,51.8824420,45.0125730
Красноармейск,Саратовская область,51.0257760,45.6925200
Ершов,Саратовская область,51.3498500,48.2750780
Новоузенск,Саратовская область,50.4623260,48.1355320
Красный Кут,Саратовская область,50.9459056,46.9724620
Озинки,Саратовская область,51.1985590,49.7265400
Саратов-63,Саратовская область,51.5013774,46.1233093
Южно-Сахалинск,Сахалинская область,46.9574273,142.7274380
Корсаков,Сахалинская область,46.6328150,142.7810146
Холмск,Сахалинская область,47.0545874,142.0487125
Оха,Сахалинская область,53.5905100,142.9500964
Ноглики,Сахалинская область,51.7953617,143.1365077
Углегорск,Сахалинская область,49.0802071,142.0643532
Восток,Сахалинская область,48.9804499,142.9187719
Екатеринбург,Свердловская область,56.8391040,60.6082500
Нижний Тагил,Свердловская область,57.9051490,59.9508466
Первоуральск,Свердловская область,56.9048580,59.9431190
Новоуральск,Свердловская область,57.2470470,60.0958180
Верхняя Пышма,Свердловская область,56.9724682,60.5738926
Ревда,Свердловская область,56.8000140,59.9108730
Берёзовский,Свердловская область,56.9097900,60.8120120
Заречный,Свердловская область,56.8149706,61.3205936
Красноуральск,Свердловская область,58.3570630,60.0374450
Арамиль,Свердловская область,56.6954649,60.8504536
Троицкий,Свердловская область,57.0614655,63.7529299
Смоленск,Смоленская область,54.7940965,32.0549595
Вязьма,Смоленская область,55.2103563,34.2995187
Ярцево,Смоленская область,55.0662279,32.6883609
Сафоново,Смоленская область,55.1084248,33.2376159
Гагарин,Смоленская область,55.5533830,34.9968640
Десногорск,Смоленская область,54.1516661,33.2881028
Починок,Смоленская область,54.4047760,32.4407898
Вязьма-Брянская,Смоленская область,55.1624211,34.3611382
Духовщина,Смоленская область,55.1907803,32.4060434
Ставрополь,Ставропольский край,45.0433245,41.9690934
Пятигорск,Ставропольский край,44.0397750,43.0706669
Кисловодск,Ставропольский край,43.9128743,42.7192186
Невинномысск,Ставропольский край,44.6333559,41.9408684
Михайловск,Ставропольский край,45.1324913,42.0263304
Георгиевск,Ставропольский край,44.1478944,43.4741718
Изобильный,Ставропольский край,45.3740796,41.7121154
Светлоград,Ставропольский край,45.3355066,42.8434716
Зеленокумск,Ставропольский край,44.4031750,43.8841630
Иноземцево,Ставропольский край,44.0939286,43.0931055
Железноводск,Ставропольский край,44.1424034,43.0090750
Нефтекумск,Ставропольский край,44.7522049,44.9850769
Донское,Ставропольский край,45.4548156,41.9756382
Курсавка,Ставропольский край,44.4616429,42.5082311
Тамбов,Тамбовская область,52.7287899,41.4553600
Мичуринск,Тамбовская область,52.8946613,40.5071721
Рассказово,Тамбовская область,52.6374034,41.8754306
Моршанск,Тамбовская область,53.4429019,41.8130990
Котовск,Тамбовская область,52.5870419,41.4994249
Уварово,Тамбовская область,51.9898450,42.2583960
Сатинка,Тамбовская область,52.3771130,41.6736790
Бондари,Тамбовская область,52.9502841,42.0663629
Петровское,Тамбовская область,51.9218412,41.7498692
Тверь,Тверская область,56.8586750,35.9208284
Ржев,Тверская область,56.2592620,34.3301510
Вышний Волочёк,Тверская область,57.5883030,34.5714000
Торжок,Тверская область,57.0407940,34.9733730
Кимры,Тверская область,56.8825000,37.3521000
Конаково,Тверская область,56.7131572,36.7775654
Осташков,Тверская область,57.1555447,33.1026650
Андреаполь,Тверская область,56.6468010,32.2653200
Томск,Томская область,56.4887120,84.9523240
Северск,Томская область,56.6031610,84.8810120
Стрежевой,Томская область,60.7327580,77.6008070
Асино,Томская область,56.9991870,86.1416700
Колпашево,Томская область,58.3136670,82.9035570
Мельниково,Томская область,56.5544170,84.0904080
Кожевниково,Томская область,56.2601320,83.9763870
Зональная,Томская область,56.4269220,85.0221020
Парабель,Томская область,58.7137410,81.5017930
Бакчар,Томская область,57.0205380,82.0668720
Зырянское,Томская область,56.8342060,86.6211780
Первомайское,Томская область,57.0706140,86.2260820
Молчаново,Томская область,57.5812043,83.7605958
Подгорное,Томская область,57.7915323,82.6441106
Итатка,Томская область,56.8231240,85.6037670
Усть-Бакчар,Томская область,57.6108440,82.3195650
Тула,Тульская область,54.1930321,37.6175400
Новомосковск,Тульская область,54.0110130,38.2909430
Донской,Тульская область,53.9656510,38.3183367
Щёкино,Тульская область,54.0044650,37.5179079
Алексин,Тульская область,54.5028103,37.0667213
Узловая,Тульская область,53.9785120,38.1602550
Ефремов,Тульская область,53.1418340,38.1161880
Богородицк,Тульская область,53.7735710,38.1269650
Кимовск,Тульская область,53.9699000,38.5327000
Киреевск,Тульская область,53.9267120,37.9299160
Плавск,Тульская область,53.7070177,37.2914405
Ясногорск,Тульская область,54.4792708,37.6933290
Венёв,Тульская область,54.3506275,38.2665610
Белёв,Тульская область,53.8117980,36.1370010
Плеханово,Тульская область,54.0155363,37.7163414
Заокский,Тульская область,54.7331733,37.3989781
Тюмень,Тюменская область,57.1535340,65.5422740
Тобольск,Тюменская область,58.1998048,68.2512924
Ишим,Тюменская область,56.1109120,69.4733660
Ялуторовск,Тюменская область,56.6549340,66.3127520
Исетское,Тюменская область,56.4753800,65.3286059
Ижевск,Удмуртская Республика,56.8665570,53.2094166
Воткинск,Удмуртская Республика,57.0525050,53.9906120
Сарапул,Удмуртская Республика,56.4773340,53.8192957
Глазов,Удмуртская Республика,58.1401196,52.6464388
Можга,Удмуртская Республика,56.4427352,52.2138520
Игра,Удмуртская Республика,57.5467442,53.0991803
Балезино,Удмуртская Республика,57.9744527,53.0110979
Дебесы,Удмуртская Республика,57.6523510,53.8063930
Вавож,Удмуртская Республика,56.7736216,51.9345953
Ульяновск,Ульяновская область,54.3107593,48.3642771
Димитровград,Ульяновская область,54.2188995,49.6038982
Чердаклы,Ульяновская область,54.3600605,48.8489979
Ишеевка,Ульяновская область,54.4250763,48.2710846
Сенгилей,Ульяновская область,53.9588733,48.7872182
Старая Майна,Ульяновская область,54.6072235,48.9259216
Вешкайма,Ульяновская область,54.0500142,47.1246488
Хабаровск,Хабаровский край,48.4814030,135.0769350
Комсомольск-на-Амуре,Хабаровский край,50.5508770,137.0207820
Амурск,Хабаровский край,50.2299420,136.9015350
Николаевск-на-Амуре,Хабаровский край,53.1387290,140.7249300
Бикин,Хабаровский край,46.8193630,134.2548220
Ванино,Хабаровский край,49.0904809,140.2608640
Вяземский,Хабаровский край,47.5334549,134.7578739
Чегдомын,Хабаровский край,51.1344870,133.0355530
Солнечный,Хабаровский край,50.7238080,136.6400600
Хор,Хабаровский край,47.8825720,134.9609380
Переяславка,Хабаровский край,47.9686359,135.0549470
Хурба,Хабаровский край,50.4084360,136.8883820
Новый Ургал,Хабаровский край,51.0711439,132.6054840
Троицкое,Хабаровский край,49.4431608,136.5550423
Селихино,Хабаровский край,50.3697400,137.5070190
Монгохто,Хабаровский край,49.2402110,140.2290190
Мухен,Хабаровский край,48.1947250,136.1371770
Охотск,Хабаровский край,59.3643921,143.2410816
Высокогорный,Хабаровский край,50.0975150,139.1259160
Майский,Хабаровский край,48.9983020,140.2052000
Комсомольск-31,Хабаровский край,50.4819869,137.0852510
Сергеевка,Хабаровский край,48.4707300,135.3776400
Маяк,Хабаровский край,48.9177855,136.2466245
Сургут,Ханты-Мансийский автономный округ-Югра,61.2540320,73.3964000
Нижневартовск,Ханты-Мансийский автономный округ-Югра,60.9340440,76.5803680
Нефтеюганск,Ханты-Мансийский автономный округ-Югра,61.0903090,72.6101000
Радужный,Ханты-Мансийский автономный округ-Югра,62.1353150,77.4626160
Пыть-Ях,Ханты-Мансийский автономный округ-Югра,60.7551160,72.8399810
Челябинск,Челябинская область,55.1598408,61.4025547
Магнитогорск,Челябинская область,53.4242184,58.9831360
Миасс,Челябинская область,55.0653040,60.1083370
Копейск,Челябинская область,55.1131951,61.6216332
Троицк,Челябинская область,54.0845490,61.5519910
Кыштым,Челябинская область,55.7099230,60.5512080
Карталы,Челябинская область,53.0532610,60.6391720
Юрюзань,Челябинская область,54.8700750,58.4278070
Уйское,Челябинская область,54.3734210,60.0054470
Полетаево,Челябинская область,55.0364530,61.1130940
Павловский,Челябинская область,52.0871810,60.0270080
Чебоксары,Чувашская Республика,56.1307195,47.2449597
Новочебоксарск,Чувашская Республика,56.1140023,47.4870341
Канаш,Чувашская Республика,55.5113818,47.5067782
Шумерля,Чувашская Республика,55.4985162,46.4186725
Кугеси,Чувашская Республика,56.0315502,47.2987956
Козловка,Чувашская Республика,55.8414764,48.2484230
Ядрин,Чувашская Республика,55.9407976,46.2006586
Моргауши,Чувашская Республика,55.9642116,46.7687775
Аликово,Чувашская Республика,55.7393757,46.7465335
Новый Уренгой,Ямало-Ненецкий автономный округ,66.0851960,76.6799167
Губкинский,Ямало-Ненецкий автономный округ,64.4337824,76.4898086
Ярославль,Ярославская область,57.6263877,39.8933705
Рыбинск,Ярославская область,58.0503730,38.8346370
Тутаев,Ярославская область,57.8753850,39.5272140
Переславль-Залесский,Ярославская область,56.7366104,38.8462821
Углич,Ярославская область,57.5267830,38.3166889
Ростов,Ярославская область,57.1868444,39.4138450
Данилов,Ярославская область,58.1888080,40.1751140
Красный Бор,Ярославская область,57.6400817,39.9779684
Нагорный,Ярославская область,57.5622301,39.8383513
